[{"kind":"souq","osm_id":265405305,"osm_type":"node","lat":25.267563,"lon":55.297059,"name":"Spice Souk","opening_hours":"Mo-Su 08:00-12:00","wheelchair":"yes"},{"kind":"souq","osm_id":1673474394,"osm_type":"node","lat":25.265835,"lon":55.33247,"name":"Future Star BMT LLC"},{"kind":"souq","osm_id":2065138117,"osm_type":"node","lat":25.0706,"lon":55.135137,"name":"Pampered Pets","addr_street":"Al Hubob Street"},{"kind":"souq","osm_id":2246362114,"osm_type":"node","lat":25.22881,"lon":55.319092,"name":"Khan Murjan","name_ar":"خان مرجان"},{"kind":"mall","osm_id":2283508676,"osm_type":"node","lat":25.258217,"lon":55.298391,"name":"Musalla Tower Mall"},{"kind":"mall","osm_id":2377117124,"osm_type":"node","lat":25.044687,"lon":55.120428,"name":"Ibn Battuta Mall","name_ar":"مجمع ابن بطوطا","wikidata":"Q511504","wikipedia":"fa:ابن بطوطه (مرکز خرید)","addr_street":"شارع الشيخ زايد","wheelchair":"yes"},{"kind":"mall","osm_id":2501412647,"osm_type":"node","lat":25.271533,"lon":55.305105,"name":"Naif Souq","name_ar":"سوق نايف دبي"},{"kind":"souq","osm_id":2535696294,"osm_type":"node","lat":25.268428,"lon":55.297734,"name":"ALLRED SAFFRON"},{"kind":"souq","osm_id":2847480025,"osm_type":"node","lat":25.283382,"lon":55.341368,"name":"Hamria Shopping Centre"},{"kind":"mall","osm_id":3178343265,"osm_type":"node","lat":25.222629,"lon":55.35573,"name":"MMI Festival City","opening_hours":"Mo-Su 10:00-24:00","wheelchair":"yes"},{"kind":"mall","osm_id":3205730635,"osm_type":"node","lat":25.235327,"lon":55.436118,"name":"Arabian Center","website":"https://www.arabiancenter.com/","addr_street":"Al Khawaneej Road","addr_city":"دبي"},{"kind":"mall","osm_id":3257726158,"osm_type":"node","lat":25.380525,"lon":55.462469,"name":"Emirates Markets"},{"kind":"souq","osm_id":3415625134,"osm_type":"node","lat":25.285237,"lon":55.395184,"name":"Cattle Market Dubai","operator":"Dubai Gov","addr_street":"Halab Street","addr_city":"دبي"},{"kind":"mall","osm_id":3711600886,"osm_type":"node","lat":25.237392,"lon":55.272379,"name":"Al Ghazal Commercial Complex"},{"kind":"souq","osm_id":3834064757,"osm_type":"node","lat":25.267998,"lon":55.297454,"name":"utensils market"},{"kind":"mall","osm_id":3900703575,"osm_type":"node","lat":25.04034,"lon":55.196943,"name":"City Centre Meaisem"},{"kind":"mall","osm_id":3930681354,"osm_type":"node","lat":25.087398,"lon":55.312987,"name":"Remal Mall","addr_street":"Sheikh Mohammed bin Zayed Road","addr_city":"دبي"},{"kind":"mall","osm_id":4178755812,"osm_type":"node","lat":25.268331,"lon":55.30716,"name":"Handmade carpets"},{"kind":"mall","osm_id":4453793870,"osm_type":"node","lat":25.23492,"lon":55.277905,"name":"Al Diyafa Shopping Center"},{"kind":"mall","osm_id":4551487155,"osm_type":"node","lat":25.149142,"lon":55.245927,"name":"GRAND hyper","operator":"regency group","addr_street":"Latifa Bint Hamdan Street","addr_city":"دبي"},{"kind":"mall","osm_id":4565138662,"osm_type":"node","lat":25.217784,"lon":55.418412,"name":"Park Centre","addr_street":"26B Street"},{"kind":"souq","osm_id":4890607317,"osm_type":"node","lat":25.134388,"lon":55.255184,"name":"Shezan Al Madina Grocery","addr_street":"28 Street"},{"kind":"souq","osm_id":4890674398,"osm_type":"node","lat":25.13419,"lon":55.240631,"name":"Najd Al Anze Grocery","addr_street":"Street 25","addr_city":"دبي"},{"kind":"souq","osm_id":4890674413,"osm_type":"node","lat":25.134238,"lon":55.238206,"name":"Al Madina Grocery","addr_street":"Street 4b","addr_city":"دبي"},{"kind":"mall","osm_id":4892822143,"osm_type":"node","lat":25.123304,"lon":55.221685,"name":"AL Qouz Mall","addr_street":"شارع 22","addr_city":"دبي"},{"kind":"souq","osm_id":4898052895,"osm_type":"node","lat":25.141638,"lon":55.242324,"name":"Right Bite","addr_street":"Al Asayel Street","addr_city":"دبي"},{"kind":"souq","osm_id":4898144372,"osm_type":"node","lat":25.169455,"lon":55.240836,"name":"Carrefour","addr_street":"3 a Street","addr_city":"دبي"},{"kind":"mall","osm_id":4902841785,"osm_type":"node","lat":25.246234,"lon":55.308321,"name":"Sparkle Shine","operator":"Sparkle Shine General Trading LLC","opening_hours":"Fr 14:00-23:00;Mo-Th,Sa-Su 10:30-22:00","website":"https://www.dubaikidi.com/","phone":"+971 4 334 2307","addr_street":"Za'abeel Street"},{"kind":"souq","osm_id":4919199126,"osm_type":"node","lat":25.172126,"lon":55.233051,"name":"Al Soueida Grocery","addr_street":"6d Street"},{"kind":"souq","osm_id":4924472654,"osm_type":"node","lat":25.203443,"lon":55.253005,"name":"Royal Way Grocery","addr_street":"6a Street","addr_city":"Jumeirah 1"},{"kind":"mall","osm_id":4924997870,"osm_type":"node","lat":25.203558,"lon":55.262705,"name":"Shiseido","addr_street":"Al Dorar Street","addr_city":"دبي"},{"kind":"souq","osm_id":4932798556,"osm_type":"node","lat":25.401077,"lon":55.468544,"name":"Qaser Al Mulook Foodstuff","addr_street":"18 Street"},{"kind":"mall","osm_id":4932952870,"osm_type":"node","lat":25.405053,"lon":55.507827,"name":"Hani Mall"},{"kind":"souq","osm_id":4937611608,"osm_type":"node","lat":25.434995,"lon":55.513838,"name":"Saeed Al Raeesi Foodstuff Catering Services"},{"kind":"souq","osm_id":4939134442,"osm_type":"node","lat":25.278144,"lon":55.346133,"name":"Privilege Line General Trading","addr_street":"Abu Hail Street"},{"kind":"souq","osm_id":4940536896,"osm_type":"node","lat":25.286919,"lon":55.364426,"name":"Al Madina Grocery"},{"kind":"souq","osm_id":4940871959,"osm_type":"node","lat":25.266692,"lon":55.371126,"name":"Grocery","addr_street":"11c Street"},{"kind":"souq","osm_id":4941248722,"osm_type":"node","lat":25.26966,"lon":55.375955,"name":"Nature","addr_street":"Al Nahda Street"},{"kind":"souq","osm_id":4944099229,"osm_type":"node","lat":25.278288,"lon":55.331075,"name":"Beroia Trading","addr_street":"Hor Al Anz Street"},{"kind":"souq","osm_id":4944192334,"osm_type":"node","lat":25.282249,"lon":55.338005,"name":"Rayal Grocery","addr_street":"4b Street"},{"kind":"souq","osm_id":4944243675,"osm_type":"node","lat":25.278024,"lon":55.331033,"name":"Moaza Mohammed Foodstuff Trading","addr_street":"16a Street"},{"kind":"souq","osm_id":4944658682,"osm_type":"node","lat":25.392534,"lon":55.431842,"name":"Obaid Juma Grocery","addr_street":"Sheikh Khalifa bin Zayed Street"},{"kind":"souq","osm_id":4944674667,"osm_type":"node","lat":25.392316,"lon":55.433414,"name":"Al Musbah Foodstuff","addr_street":"Sheikh Khalifa bin Zayed Street"},{"kind":"souq","osm_id":4944674677,"osm_type":"node","lat":25.39223,"lon":55.434011,"name":"Dana Mart","addr_street":"Sheikh Khalifa bin Zayed Street"},{"kind":"mall","osm_id":4949907427,"osm_type":"node","lat":25.405024,"lon":55.440802,"name":"Dreams City","addr_street":"Sheikh Rashid Bin Humaid Al Nuaimi Street"},{"kind":"souq","osm_id":4952701129,"osm_type":"node","lat":25.391732,"lon":55.43776,"name":"Rafiq Foodstuff Trading","addr_street":"Sheikh Khalifa bin Zayed Street"},{"kind":"souq","osm_id":4952728045,"osm_type":"node","lat":25.391615,"lon":55.438523,"name":"Al Bait Al Syria","addr_street":"Sheikh Khalifa bin Zayed Street"},{"kind":"souq","osm_id":4986601394,"osm_type":"node","lat":25.287284,"lon":55.306547,"name":"Deira Night Souk"},{"kind":"mall","osm_id":5111278487,"osm_type":"node","lat":25.078135,"lon":55.124265,"name":"Bluewaters Wharf Retail","wheelchair":"limited"},{"kind":"mall","osm_id":7238953721,"osm_type":"node","lat":25.255888,"lon":55.30079,"name":"Business Time Center","operator":"Business Time Center LLC","opening_hours":"Mo-Th, Sa-Su 08:30-18:30","website":"https://www.ebsuae.com/","phone":"+971 4 297 4923;+971 50 258 4771","addr_street":"18th Street","addr_city":"دبي","wheelchair":"limited"},{"kind":"mall","osm_id":7245070007,"osm_type":"node","lat":25.252869,"lon":55.328637,"name":"Platinum Link","operator":"Platinum Link","opening_hours":"Mo-Th,Sa-Su 09:00-18:00","website":"https://www.platinumlinkuae.com/","phone":"+971 4 345 2225","addr_street":"شارع 34"},{"kind":"mall","osm_id":7468794404,"osm_type":"node","lat":25.029518,"lon":55.107749,"name":"Festival Plaza","addr_street":"Sheikh Zayed Road","wheelchair":"yes"},{"kind":"mall","osm_id":7548423128,"osm_type":"node","lat":25.199495,"lon":55.26844,"name":"Business Time Centre","operator":"Business Time Centre LLC","opening_hours":"Mo-Th,Sa-Su 08:30-18:30","website":"https://www.ebsuae.com/","phone":"+971 4 297 4923;+971 50 258 4771"},{"kind":"souq","osm_id":9022667323,"osm_type":"node","lat":25.358955,"lon":55.615101,"name":"zoom"},{"kind":"mall","osm_id":9044798505,"osm_type":"node","lat":25.14467,"lon":55.198577,"name":"Meyan Mall","operator":"Al Waleed Group","opening_hours":"24/7","website":"https://www.meyanmall.com","phone":"971 4 572 3000","addr_street":"Al Thanya Intersection","addr_city":"دبي","wheelchair":"yes"},{"kind":"mall","osm_id":9236177422,"osm_type":"node","lat":25.1985,"lon":55.442451,"name":"warqa mall","name_ar":"الورقاء مول"},{"kind":"mall","osm_id":9450181681,"osm_type":"node","lat":25.390835,"lon":55.484854,"name":"Al Saqa supermarket"},{"kind":"souq","osm_id":9908108798,"osm_type":"node","lat":25.291682,"lon":55.323045,"name":"Fruits & Vegetables Market"},{"kind":"mall","osm_id":10082387831,"osm_type":"node","lat":25.188092,"lon":55.40855,"name":"Al Warqa Q1 Mall","name_ar":"الورقاء كيو 1مول"},{"kind":"mall","osm_id":11005797105,"osm_type":"node","lat":25.182621,"lon":55.377475,"name":"Marhaba Mall"},{"kind":"mall","osm_id":12309105701,"osm_type":"node","lat":25.253728,"lon":55.302815,"name":"Centrepoint"},{"kind":"mall","osm_id":12949153204,"osm_type":"node","lat":25.121021,"lon":55.212464,"name":"Q East By Alphabeta","operator":"Alphabeta Properties","addr_street":"Al Quoz - Al Quoz Industrial Area 3 - Dubai","addr_city":"Dubai"},{"kind":"souq","osm_id":13123414806,"osm_type":"node","lat":25.292359,"lon":55.323955,"name":"Fish market"},{"kind":"mall","osm_id":13324214231,"osm_type":"node","lat":25.258843,"lon":55.298157,"name":"Madinas"},{"kind":"souq","osm_id":13664423145,"osm_type":"node","lat":25.055423,"lon":55.220545,"name":"Choice Mart"},{"kind":"souq","osm_id":13664478448,"osm_type":"node","lat":25.056445,"lon":55.220703,"name":"Greens Mini Mart","opening_hours":"Mo-Su 08:00-23:00","addr_street":"Dana Road","addr_city":"Dubai"},{"kind":"mall","osm_id":25780630,"osm_type":"way","lat":25.252249,"lon":55.332772,"name":"Deira City Centre","name_ar":"ديرة سيتي سنتر","operator":"Majid Al Futtaim Group","opening_hours":"10:00-22:00","website":"https://www.citycentredeira.com","wikidata":"Q4037155","wikipedia":"ar:ديرة سيتي سنتر","building":"yes","building_levels":"3"},{"kind":"mall","osm_id":76091909,"osm_type":"way","lat":25.056889,"lon":55.270465,"name":"Arabian Ranches Community Center","website":"https://www.ecm.ae/en/communities/arabian-ranches/discover/whats-around/arabian-ranches-retail-centre-arabian-ranches/","building":"yes","wheelchair":"yes"},{"kind":"mall","osm_id":87287165,"osm_type":"way","lat":25.098862,"lon":55.204604,"name":"Al Barsha Mall","name_ar":"البرشاء مول","opening_hours":"Su-Th 10:00-22:00; Fr-Sa 10:00-24:00","website":"https://www.albarshamall.ae/","phone":"044557151","building":"yes","wheelchair":"limited"},{"kind":"mall","osm_id":88376144,"osm_type":"way","lat":25.173735,"lon":55.417913,"name":"Dragon Mart","name_ar":"سوق التنين","website":"https://www.dragonmart.ae/","phone":"+971 43909999","addr_street":"Al Awir Road","addr_city":"دبي","building":"commercial"},{"kind":"mall","osm_id":91383643,"osm_type":"way","lat":25.199102,"lon":55.265381,"name":"Mazaya Shopping Centre","addr_street":"Al Badaa' Street","addr_city":"دبي","building":"yes"},{"kind":"mall","osm_id":91392998,"osm_type":"way","lat":25.169505,"lon":55.2418,"name":"Oasis Mall","name_ar":"الواحة مول","addr_street":"Sheikh Zayed Road","building":"yes"},{"kind":"mall","osm_id":91393001,"osm_type":"way","lat":25.139538,"lon":55.220043,"name":"Times Square Center","name_ar":"مركز تايمز سكوير","opening_hours":"Mo-Su 10:00-22:00","website":"https://timessquarecenter.ae/","phone":"+971 4 341 8020","building":"yes"},{"kind":"mall","osm_id":91393003,"osm_type":"way","lat":25.19547,"lon":55.262159,"name":"Al Wasl Centre","building":"retail"},{"kind":"mall","osm_id":91440618,"osm_type":"way","lat":25.128613,"lon":55.2324,"name":"Grand City Mall","name_ar":"جراند ستي مول","addr_suburb":"Al Quoz","addr_city":"دبي","building":"yes"},{"kind":"mall","osm_id":94414196,"osm_type":"way","lat":25.131697,"lon":55.118219,"name":"Atlantis Mall","opening_hours":"Su-Fr 09:00-11:00, Fr,Sa 09:00-12:00","addr_city":"دبي","building":"hotel","wheelchair":"limited"},{"kind":"mall","osm_id":102828180,"osm_type":"way","lat":25.254135,"lon":55.302816,"name":"Bur Juman Shopping Center","name_ar":"مركز برجمان دبي","website":"https://burjuman.com","building":"yes","building_levels":"3","wheelchair":"yes","internet_access":"wlan"},{"kind":"mall","osm_id":102832548,"osm_type":"way","lat":25.044545,"lon":55.12033,"name":"Ibn Battuta Mall","name_ar":"مجمع ابن بطوطا","operator":"Nakheel Malls","opening_hours":"Mo-We 10:00-22:00; Th-Sa 10:00-24:00; Su 09:45-22:00","website":"https://www.ibnbattutamall.com/","phone":"+971 4 390 9999","wikidata":"Q511504","wikipedia":"fa:ابن بطوطه (مرکز خرید)","building":"retail","building_levels":"1","wheelchair":"yes"},{"kind":"mall","osm_id":102844109,"osm_type":"way","lat":25.215004,"lon":55.25129,"name":"Town Centre Jumeirah","opening_hours":"Sa-Th 10:00-22:00; Fr 13:30-22:00","building":"yes"},{"kind":"mall","osm_id":104655711,"osm_type":"way","lat":25.114026,"lon":55.138509,"name":"Palm Jumeirah Mall","name_ar":"مول نخلة جميرا","operator":"Nakheel Properties","opening_hours":"Su-Th 10:00-22:00; Fr,Sa 10:00-24:00","website":"https://www.palmjumeirahmall.ae","phone":"+971 800 738245","wikidata":"Q115803914","wikipedia":"en:Palm Jumeirah Mall","building":"yes","building_levels":"5","wheelchair":"limited"},{"kind":"mall","osm_id":105359350,"osm_type":"way","lat":25.216068,"lon":55.407471,"name":"Mirdif City Center","opening_hours":"Mo-Su 10:00-00:00; PH off","website":"https://www.citycentremirdif.com","phone":"+971 800 22 6255","wikidata":"Q6873078","wikipedia":"en:City Centre Mirdif","building":"yes","building_levels":"4","wheelchair":"limited","internet_access":"wlan"},{"kind":"mall","osm_id":110242011,"osm_type":"way","lat":25.256406,"lon":55.296596,"name":"Al Ain Center"},{"kind":"mall","osm_id":144136267,"osm_type":"way","lat":25.072538,"lon":55.400596,"name":"Dubai Outlet Mall","opening_hours":"Mo-Su,PH 10:00-22:00","website":"http://Dubaioutletmall.com","wikidata":"Q1989878","wikipedia":"en:Dubai Outlet Mall","building":"yes","wheelchair":"limited"},{"kind":"mall","osm_id":146379257,"osm_type":"way","lat":25.297852,"lon":55.373241,"name":"Sahara Centre","name_ar":"مركز صحاري الشارقة","phone":"+971 6 531 6611","building":"yes","building_levels":"3","wheelchair":"yes"},{"kind":"mall","osm_id":165024270,"osm_type":"way","lat":25.256217,"lon":55.29413,"name":"Al Rais Shoping Centre","building":"yes","building_levels":"10"},{"kind":"mall","osm_id":167290465,"osm_type":"way","lat":25.390113,"lon":55.444845,"name":"Safeer Mall","building":"retail","building_levels":"5"},{"kind":"mall","osm_id":167290466,"osm_type":"way","lat":25.406543,"lon":55.442256,"name":"Al Manama Centre","name_ar":"مركز المنامة","building":"retail"},{"kind":"mall","osm_id":175115425,"osm_type":"way","lat":25.117941,"lon":55.200511,"name":"Mall of The Emirates","name_ar":"مول الإمارات","operator":"ماجد الفطيم","opening_hours":"Th-Fr 10:00-24:00; Sa-We 10:00-22:00","website":"http://www.malloftheemirates.com/","wikidata":"Q1066448","wikipedia":"Mall of the Emirates","addr_city":"دبي","wheelchair":"yes","internet_access":"wlan"},{"kind":"mall","osm_id":179619234,"osm_type":"way","lat":25.399735,"lon":55.478893,"name":"City Centre Ajman","name_ar":"سيتي سنتر عجمان","operator":"Majid Al Futtaim Properties","brand":"City Centre","opening_hours":"Mo-Su 10:00-00:00","website":"https://www.citycentreajman.com","phone":"+971 800 226255","building":"yes","building_levels":"2","internet_access":"wlan"},{"kind":"souq","osm_id":195817637,"osm_type":"way","lat":25.392512,"lon":55.478802,"name":"Salem Shopping Center","name_ar":"مركز سالم للتسوق عجمان","building":"yes"},{"kind":"souq","osm_id":195869507,"osm_type":"way","lat":25.391754,"lon":55.480124,"name":"Ajman Fruit Shops B1","building":"yes"},{"kind":"souq","osm_id":195869525,"osm_type":"way","lat":25.392375,"lon":55.480493,"name":"Ajman Public Market","building":"yes"},{"kind":"souq","osm_id":195869540,"osm_type":"way","lat":25.391933,"lon":55.478619,"name":"Ajman Fruit & Vegetable Market","building":"yes"},{"kind":"souq","osm_id":195869559,"osm_type":"way","lat":25.390228,"lon":55.4794,"name":"Ajman Chicken & Meat Market","name_ar":"السوق الايراني بعجمان","building":"yes"},{"kind":"souq","osm_id":195869581,"osm_type":"way","lat":25.391565,"lon":55.479321,"name":"Ajman Fruit Shops B2","building":"yes"},{"kind":"souq","osm_id":195869600,"osm_type":"way","lat":25.39059,"lon":55.480702,"name":"Ajman Chicken & Meat Market","building":"yes"},{"kind":"mall","osm_id":196090504,"osm_type":"way","lat":25.388179,"lon":55.42161,"name":"Matajer Al Mirgab","building":"retail"},{"kind":"mall","osm_id":200915107,"osm_type":"way","lat":25.076653,"lon":55.140211,"name":"Dubai Marina Mall","name_ar":"دبي مارينا مول","operator":"Emaar","opening_hours":"Mo-Su 08:00-24:00","website":"https://www.dubaimarinamall.com/","phone":"+971 4 436 1020","wikidata":"Q18450188","wikipedia":"en:Dubai Marina Mall","building":"retail","building_levels":"4","wheelchair":"yes"},{"kind":"mall","osm_id":200944914,"osm_type":"way","lat":25.344885,"lon":55.39878,"name":"Sharjah Mega Mall","addr_street":"Abu Obiedah Bin Al Jarah Street","building":"yes"},{"kind":"mall","osm_id":201292183,"osm_type":"way","lat":25.290087,"lon":55.347128,"name":"Century Mall","name_ar":"سنشري مول","website":"https://www.safeergroup.com/centurymall.asp","addr_street":"Al Wuheida road","building":"yes"},{"kind":"mall","osm_id":202638341,"osm_type":"way","lat":25.133439,"lon":55.185722,"name":"Souk Madinat Jumeirah","name_ar":"سوق مدينة جميرا","website":"https://www.jumeirah.com/en/hotels-resorts/dubai/madinat-jumeirah/facilities/souk-madinat-jumeirah/","addr_street":"Al Sufouh Road","addr_city":"دبي","building":"retail"},{"kind":"mall","osm_id":207560274,"osm_type":"way","lat":25.389579,"lon":55.472002,"name":"Galleria Mall","building":"yes"},{"kind":"souq","osm_id":219201312,"osm_type":"way","lat":25.176531,"lon":55.388064,"name":"Fruits & Vegetable Market","building":"yes"},{"kind":"mall","osm_id":225672808,"osm_type":"way","lat":25.252492,"lon":55.301753,"name":"BurJuman Mall","name_ar":"مركز برجمان للتسوق","website":"https://www.burjuman.com","building":"yes","building_levels":"3","wheelchair":"yes"},{"kind":"mall","osm_id":230629134,"osm_type":"way","lat":25.228359,"lon":55.261427,"name":"Century Plaza","building":"yes"},{"kind":"mall","osm_id":230629135,"osm_type":"way","lat":25.229486,"lon":55.262143,"name":"Jumeirah Plaza","building":"yes"},{"kind":"mall","osm_id":230629136,"osm_type":"way","lat":25.230628,"lon":55.262934,"name":"Jumeirah Center","addr_street":"Jumeira Street","building":"yes"},{"kind":"mall","osm_id":230790744,"osm_type":"way","lat":25.224861,"lon":55.258933,"name":"Beach Centre","name_ar":"مركز الشاطئ","building":"yes"},{"kind":"mall","osm_id":231490571,"osm_type":"way","lat":25.260083,"lon":55.297273,"name":"Al Fahidi Souk","name_ar":"سوق الفهيدي","building":"yes"},{"kind":"souq","osm_id":238920678,"osm_type":"way","lat":25.400371,"lon":55.453518,"name":"Ajman Fish Market","name_ar":"سوق السمك عجمان","addr_street":"Sheikh Rashid bin Saeed Al Maktoom Street","building":"yes"},{"kind":"mall","osm_id":238945564,"osm_type":"way","lat":25.386457,"lon":55.473425,"name":"The Factory Mart","building":"yes"},{"kind":"mall","osm_id":239741726,"osm_type":"way","lat":25.404466,"lon":55.44496,"name":"Al Ittihad Mall","addr_street":"Sheikh Rashid Bin Abdul Aziz Street","building":"yes"},{"kind":"mall","osm_id":240229113,"osm_type":"way","lat":25.149195,"lon":55.246221,"name":"Al Khail Mall","building":"yes","building_levels":"2"},{"kind":"mall","osm_id":241249996,"osm_type":"way","lat":25.147886,"lon":55.245894,"name":"Grand Shopping Mall","building":"yes"},{"kind":"mall","osm_id":242009682,"osm_type":"way","lat":25.257032,"lon":55.295108,"name":"Al Khaleej Centre","name_ar":"مركز الخليج","building":"commercial","building_levels":"9"},{"kind":"mall","osm_id":242009718,"osm_type":"way","lat":25.244902,"lon":55.302995,"name":"Karama Centre - essen","name_ar":"سوق الكرامة","building":"yes"},{"kind":"mall","osm_id":242009759,"osm_type":"way","lat":25.245221,"lon":55.30239,"name":"Al Attar Centre","building":"yes"},{"kind":"mall","osm_id":242048648,"osm_type":"way","lat":25.172533,"lon":55.259527,"building":"yes"},{"kind":"souq","osm_id":242821327,"osm_type":"way","lat":25.237377,"lon":55.303748,"name":"Karama Market","building":"yes"},{"kind":"mall","osm_id":243999653,"osm_type":"way","lat":25.352289,"lon":55.451858,"name":"Matajer","name_ar":"متاجر القوز","opening_hours":"24/7","building":"yes","building_levels":"2","internet_access":"wlan"},{"kind":"mall","osm_id":245395243,"osm_type":"way","lat":25.263845,"lon":55.386201,"name":"Al Twar Centre","building":"yes"},{"kind":"mall","osm_id":246257251,"osm_type":"way","lat":25.281975,"lon":55.398248,"name":"Madina Mall","building":"yes","building_levels":"4"},{"kind":"mall","osm_id":246355080,"osm_type":"way","lat":25.264003,"lon":55.287063,"name":"City Centre Al Shindagha","operator":"Majid Al Futtaim Properties","website":"https://www.citycentreshindagha.com/","phone":"+971 800 226255","building":"yes","building_levels":"2","internet_access":"wlan"},{"kind":"mall","osm_id":246478435,"osm_type":"way","lat":25.406049,"lon":55.512049,"building":"yes"},{"kind":"mall","osm_id":246619055,"osm_type":"way","lat":25.280794,"lon":55.380946,"name":"Bin Shabib Mall","name_ar":"بن شبيب مول","website":"http://binshabibgroup.ae","phone":"+971 4 329 8000","building":"warehouse"},{"kind":"mall","osm_id":247093067,"osm_type":"way","lat":25.378935,"lon":55.459757,"name":"Ramez Shopping Centre","building":"yes","building_levels":"2"},{"kind":"mall","osm_id":247093068,"osm_type":"way","lat":25.383377,"lon":55.464002,"name":"Hamdan Centre","building":"yes"},{"kind":"mall","osm_id":253325173,"osm_type":"way","lat":25.412973,"lon":55.443443,"name":"Ajman Gold Souq","building":"yes"},{"kind":"mall","osm_id":255762102,"osm_type":"way","lat":25.093783,"lon":55.167967,"building":"yes","building_levels":"9"},{"kind":"mall","osm_id":256847503,"osm_type":"way","lat":25.198131,"lon":55.238452,"name":"Beach park plaza hotel","name_ar":"فندق بيتش بارك بلازا","addr_street":"Jumeira Street","building":"yes"},{"kind":"mall","osm_id":256847509,"osm_type":"way","lat":25.193741,"lon":55.235123,"name":"La Plage","name_ar":"لابلاج","addr_street":"شارع 12د","addr_city":"دبي","building":"yes"},{"kind":"mall","osm_id":295115225,"osm_type":"way","lat":25.244291,"lon":55.304264,"name":"Lulu Shopping","addr_street":"16Th Street","building":"yes"},{"kind":"mall","osm_id":298457400,"osm_type":"way","lat":25.26832,"lon":55.317591,"name":"Al Ghurair Center","name_ar":"مركز الغرير","wheelchair":"yes"},{"kind":"mall","osm_id":298457406,"osm_type":"way","lat":25.269479,"lon":55.322704,"name":"Reef Mall","name_ar":"الريف مول","building":"yes","building_levels":"3"},{"kind":"mall","osm_id":298580064,"osm_type":"way","lat":25.269559,"lon":55.330075,"name":"Warba Shopping Centre","addr_street":"Abu Baker Al Siddique Road","building":"yes"},{"kind":"mall","osm_id":298580065,"osm_type":"way","lat":25.267763,"lon":55.330059,"name":"Hamarain Center","addr_street":"طريق أبو بكر الصديق","building":"yes"},{"kind":"mall","osm_id":313411288,"osm_type":"way","lat":24.986801,"lon":55.203178,"name":"Rijat Retail Mall-12","wheelchair":"yes"},{"kind":"mall","osm_id":319460976,"osm_type":"way","lat":25.217419,"lon":55.418315,"building":"yes"},{"kind":"mall","osm_id":322834448,"osm_type":"way","lat":25.302571,"lon":55.369009,"name":"Ansar Mall","opening_hours":"Su-Th 10:00-00:00; Fr-Sa 10:00-01:00","website":"https://ansarmall.ae","phone":"+971 6 531 3339","addr_street":"طريق الاتحاد","building":"yes","building_levels":"7","internet_access":"wlan"},{"kind":"mall","osm_id":333461620,"osm_type":"way","lat":25.184235,"lon":55.225695,"name":"Sunset Mall","website":"https://sunsetmall.ae","building":"retail"},{"kind":"mall","osm_id":369035034,"osm_type":"way","lat":25.040462,"lon":55.196969,"name":"Me'aisem City Center","operator":"Majid Al Futtaim Malls","website":"https://www.citycentremeaisem.com/","phone":"800 226255","building":"yes","building_levels":"1","internet_access":"wlan"},{"kind":"mall","osm_id":377596244,"osm_type":"way","lat":25.174209,"lon":55.250688,"name":"Souk Extra","addr_street":"10a شارع","building":"supermarket"},{"kind":"mall","osm_id":378974917,"osm_type":"way","lat":25.344448,"lon":55.404867,"name":"The Gold Centre","addr_street":"Oqbah Bin Othman Street","building":"yes"},{"kind":"mall","osm_id":379757441,"osm_type":"way","lat":25.172576,"lon":55.422637,"name":"Dragon Mart 2","name_ar":"سوق التنين 2","opening_hours":"Mo-Su,PH 10:00-23:59","addr_street":"Dragon Mart 2","building":"commercial","building_levels":"2","wheelchair":"limited"},{"kind":"souq","osm_id":386791192,"osm_type":"way","lat":25.346745,"lon":55.47902,"name":"Souq Al Haraj for Cars","description":"A dedicated area as a car dealers market/souq"},{"kind":"mall","osm_id":388273881,"osm_type":"way","lat":25.236873,"lon":55.280028,"name":"Al Hana Centre","name_ar":"مركز الهنا","building":"yes"},{"kind":"mall","osm_id":388752639,"osm_type":"way","lat":25.415601,"lon":55.503698,"name":"City Life Mall Al Jurf"},{"kind":"mall","osm_id":388752656,"osm_type":"way","lat":25.427715,"lon":55.525049,"name":"China Mall","name_ar":"السوق الصيني","opening_hours":"Mo-Su,PH 14:00-01:00","building":"yes","wheelchair":"limited"},{"kind":"mall","osm_id":390028537,"osm_type":"way","lat":25.397972,"lon":55.519399,"name":"Kenz Hyper Market","building":"yes"},{"kind":"mall","osm_id":391896247,"osm_type":"way","lat":25.371899,"lon":55.426414,"name":"Al Shaab Village","building":"yes","building_levels":"2"},{"kind":"souq","osm_id":396552673,"osm_type":"way","lat":25.171678,"lon":55.388454,"name":"Fruits & Vegetables Market","name_ar":"سوق الفواكه والخضروات"},{"kind":"mall","osm_id":397799929,"osm_type":"way","lat":25.399413,"lon":55.502733,"name":"Safeer Hyper Market","website":"https://www.safeerplus.ae/","phone":"+971 67499385","addr_street":"شارع الشيخ مكتوم بن راشد المكتوم","building":"yes"},{"kind":"mall","osm_id":416311679,"osm_type":"way","lat":25.324662,"lon":55.393542,"name":"Sharjah City Center","name_ar":"سيتي سنتر الشارقه","website":"https://www.citycentresharjah.com/","addr_street":"Al Wahda Street","building":"retail","building_levels":"2"},{"kind":"mall","osm_id":428663317,"osm_type":"way","lat":25.222169,"lon":55.433907,"name":"Mirdif Mall","building":"yes"},{"kind":"mall","osm_id":428663318,"osm_type":"way","lat":25.221935,"lon":55.434779,"name":"Al Barajeel Oasis Complex"},{"kind":"souq","osm_id":432726808,"osm_type":"way","lat":25.349508,"lon":55.379317,"name":"Souq Al Jubail (fish, meat, fruit, vegetable market)","opening_hours":"06:00-23:00","building":"yes","building_levels":"2"},{"kind":"mall","osm_id":436220165,"osm_type":"way","lat":25.263349,"lon":55.328688,"name":"Shopping Centre","addr_street":"Abu Baker Al Siddique Road","building":"yes","building_levels":"9"},{"kind":"souq","osm_id":437727238,"osm_type":"way","lat":25.271569,"lon":55.305109,"name":"Naif Market","building":"yes"},{"kind":"mall","osm_id":437790001,"osm_type":"way","lat":25.262219,"lon":55.319347,"name":"Al Dana Centre","name_ar":"مركز الدانة","addr_city":"دبي","building":"yes","building_levels":"9"},{"kind":"mall","osm_id":444480861,"osm_type":"way","lat":25.192866,"lon":55.410076,"name":"Aswaaq","name_ar":"أسواق","addr_city":"دبي","building":"commercial"},{"kind":"mall","osm_id":445161111,"osm_type":"way","lat":25.228473,"lon":55.432049,"name":"Aswaaq Shopping Center"},{"kind":"mall","osm_id":445330565,"osm_type":"way","lat":25.228455,"lon":55.432514,"name":"Mirdif Golden Gate"},{"kind":"souq","osm_id":447293123,"osm_type":"way","lat":25.272886,"lon":55.307831,"name":"Naif electronics shops area"},{"kind":"mall","osm_id":447597484,"osm_type":"way","lat":25.222557,"lon":55.435302,"building":"yes"},{"kind":"mall","osm_id":447833604,"osm_type":"way","lat":25.283455,"lon":55.34146,"name":"Hamria Shopping Centre","name_ar":"سوق الحمريه المركزي","building":"retail","building_levels":"1"},{"kind":"mall","osm_id":455566787,"osm_type":"way","lat":25.210325,"lon":55.278476,"name":"The Gate Avenue","name_ar":"أفينيو البوابة","website":"https://www.visitdubai.com/ar/places-to-visit/difc-gate-avenue","building":"retail","wheelchair":"yes"},{"kind":"souq","osm_id":458342302,"osm_type":"way","lat":25.171909,"lon":55.368808,"name":"Auto Market Al Awir","name_ar":"سوق السيارات العوير"},{"kind":"mall","osm_id":488556619,"osm_type":"way","lat":25.140381,"lon":55.191878,"name":"The Mall","name_ar":"المول","opening_hours":"Su-We 10:00-22:00; Th-Sa 10:00-24:00","website":"http://themall.co.ae/","building":"retail"},{"kind":"souq","osm_id":497499924,"osm_type":"way","lat":25.123133,"lon":55.245112,"name":"Tharal Grocery","addr_street":"Street 26","addr_city":"دبي","building":"yes"},{"kind":"mall","osm_id":498395505,"osm_type":"way","lat":24.951935,"lon":55.050024,"name":"Badrah Pavalion","building":"yes"},{"kind":"mall","osm_id":499329988,"osm_type":"way","lat":25.232529,"lon":55.385419,"name":"Bin Sougat Centre","addr_street":"Al Khawaneej Road","building":"yes"},{"kind":"mall","osm_id":499912090,"osm_type":"way","lat":25.174085,"lon":55.255446,"name":"Al Faris Mall","name_ar":"الفارس مول","addr_street":"8 Street","building":"yes"},{"kind":"mall","osm_id":500545448,"osm_type":"way","lat":25.147088,"lon":55.210697,"name":"J3 Mall","name_ar":"جيه3 مول","operator":"مجموعة كرماستاجي","website":"https://j3mall.com","phone":"+971 4 323 9976","addr_street":"شارع الوصل","addr_city":"دبي","building":"yes"},{"kind":"mall","osm_id":500733403,"osm_type":"way","lat":25.236992,"lon":55.421308,"name":"Etihad Mall","addr_street":"32 Street","building":"yes"},{"kind":"mall","osm_id":501031684,"osm_type":"way","lat":25.308951,"lon":55.368969,"name":"Al Arab Mall","addr_street":"شارع التعاون","building":"yes","building_levels":"2"},{"kind":"souq","osm_id":501785583,"osm_type":"way","lat":25.199685,"lon":55.255009,"name":"Neels Grocery","addr_street":"28b Street","addr_city":"Jumeirah 1","building":"yes"},{"kind":"mall","osm_id":501844805,"osm_type":"way","lat":25.355611,"lon":55.387511,"name":"K M Trading Centre","addr_street":"Sheikh Saqr Bin Khalid Al Qasimi Street","building":"yes"},{"kind":"souq","osm_id":502475124,"osm_type":"way","lat":25.411236,"lon":55.47624,"name":"Flour Mill & Grocery","addr_street":"106 Street","building":"yes"},{"kind":"souq","osm_id":502485028,"osm_type":"way","lat":25.413603,"lon":55.475873,"name":"Ganatel Foodstuff Trading","addr_street":"109 Street","building":"yes"},{"kind":"mall","osm_id":502706232,"osm_type":"way","lat":25.418868,"lon":55.488297,"name":"Flamingo Mall","addr_street":"Al Ittihad Road","building":"yes"},{"kind":"mall","osm_id":502733671,"osm_type":"way","lat":25.405626,"lon":55.511644,"name":"Al Souq","building":"yes"},{"kind":"mall","osm_id":502740678,"osm_type":"way","lat":25.262551,"lon":55.430781,"name":"Grand Hyper","addr_street":"19 Street","building":"yes"},{"kind":"souq","osm_id":502963742,"osm_type":"way","lat":25.402352,"lon":55.464782,"name":"Al Barraq","addr_street":"26 Street","building":"yes"},{"kind":"mall","osm_id":503386557,"osm_type":"way","lat":25.39838,"lon":55.454299,"name":"City Life Al Khor","addr_street":"Sheikh Rashid bin Saeed Al Maktoom Street","building":"yes","building_levels":"2"},{"kind":"mall","osm_id":503825118,"osm_type":"way","lat":25.23512,"lon":55.436005,"name":"Arabian Center","building":"yes"},{"kind":"souq","osm_id":504032488,"osm_type":"way","lat":25.291586,"lon":55.337537,"name":"Yousaf Ahmad Grocery","addr_street":"14a Street","building":"yes"},{"kind":"souq","osm_id":504059338,"osm_type":"way","lat":25.28912,"lon":55.333463,"name":"Madeena Mini Mart","addr_street":"3 Street","building":"yes"},{"kind":"mall","osm_id":505318440,"osm_type":"way","lat":25.392779,"lon":55.439169,"name":"Grand Mall","addr_street":"Sheikh Khalifa bin Zayed Street","building":"yes","building_levels":"32"},{"kind":"mall","osm_id":505910828,"osm_type":"way","lat":25.336571,"lon":55.425615,"name":"Samnan Mall","addr_street":"Wasit Street","building":"yes"},{"kind":"mall","osm_id":509567129,"osm_type":"way","lat":25.291991,"lon":55.323511,"name":"Waterfront Market","name_ar":"سوق الواجهة البحرية","website":"https://waterfrontmarket.ae","phone":"+971 4 707 1599","wikidata":"Q121308075","wikipedia":"en:Waterfront Market","addr_street":"شارع الخليج","addr_city":"ديرة","building":"yes","building_levels":"2"},{"kind":"mall","osm_id":539713570,"osm_type":"way","lat":25.03482,"lon":55.14697,"name":"Discovery Gardens Pavillion mall","building":"yes"},{"kind":"souq","osm_id":542042596,"osm_type":"way","lat":25.264587,"lon":55.294544,"name":"Spice Souk","name_ar":"سوق التوابل","wikidata":"Q5310610","wikipedia":"ar:سوق التوابل (دبي)"},{"kind":"mall","osm_id":543454789,"osm_type":"way","lat":25.364861,"lon":55.393583,"name":"Al Mubarak Centre","building":"yes","building_levels":"15"},{"kind":"mall","osm_id":546491226,"osm_type":"way","lat":25.364421,"lon":55.406391,"building":"yes"},{"kind":"mall","osm_id":550114220,"osm_type":"way","lat":25.080016,"lon":55.12312,"name":"The Wharf","building":"yes"},{"kind":"mall","osm_id":556208422,"osm_type":"way","lat":25.384428,"lon":55.408265,"name":"Sadaf Village","building":"yes"},{"kind":"mall","osm_id":651685567,"osm_type":"way","lat":25.144563,"lon":55.347072,"name":"Avenue mall"},{"kind":"mall","osm_id":653766736,"osm_type":"way","lat":25.065638,"lon":55.192702,"name":"The Springs Souk","name_ar":"سوق الينابيع","operator":"Emaar","building":"retail"},{"kind":"mall","osm_id":682359227,"osm_type":"way","lat":25.29027,"lon":55.497049,"name":"06 Mall","building":"yes"},{"kind":"mall","osm_id":700403018,"osm_type":"way","lat":25.065982,"lon":55.215969,"name":"Circle Mall","website":"https://www.circlemall.ae/","building":"retail","building_levels":"4"},{"kind":"mall","osm_id":739595590,"osm_type":"way","lat":25.014763,"lon":55.192878,"name":"The Fairway Mall","opening_hours":"Mo-Su 07:00-00:00","addr_street":"Wildflower street","addr_city":"Dubai","building":"yes","building_levels":"1","wheelchair":"limited"},{"kind":"mall","osm_id":754415783,"osm_type":"way","lat":25.029446,"lon":55.107481,"name":"Festival Plaza","building":"retail"},{"kind":"mall","osm_id":763996965,"osm_type":"way","lat":25.274045,"lon":55.316664,"name":"Burj Nahar Mall","name_ar":"برج نهار مول"},{"kind":"mall","osm_id":767770594,"osm_type":"way","lat":25.069356,"lon":55.241961,"name":"City Centre Al Barsha","operator":"Majid Al Futtaim","opening_hours":"10:00-22:00","building":"retail"},{"kind":"mall","osm_id":797700047,"osm_type":"way","lat":25.101599,"lon":55.239682,"name":"Dubai Hills Mall","name_ar":"دبي هيلز مول","operator":"إعمار العقارية","opening_hours":"Mo-Su 09:00-24:00","website":"https://www.dubaihillsmall.ae","phone":"+971 4 448 5033","wikidata":"Q55610055","wikipedia":"ar:دبي هيلز مول","addr_city":"دبي","building":"yes","wheelchair":"limited"},{"kind":"souq","osm_id":942890174,"osm_type":"way","lat":25.124467,"lon":55.348885,"name":"AllDayMarket"},{"kind":"mall","osm_id":956006529,"osm_type":"way","lat":25.11523,"lon":55.19934,"name":"The B1 Mall","website":"https://theb1mall.com/","addr_street":"شارع البرشاء 1","addr_city":"دبي","building":"commercial"},{"kind":"souq","osm_id":965304834,"osm_type":"way","lat":25.283953,"lon":55.340228,"name":"Friday Market Area 1"},{"kind":"souq","osm_id":965304835,"osm_type":"way","lat":25.284558,"lon":55.340437,"name":"Friday Market Area 2"},{"kind":"mall","osm_id":988135117,"osm_type":"way","lat":25.316868,"lon":55.455584,"name":"City Centre Al Zahia","name_ar":"سيتي سنتر الزاهية","operator":"Majid Al Futtaim","opening_hours":"10:00-22:00","addr_street":"Industrial Area - الزاهية - Sharjah","addr_city":"Muweileh Sharjah","building":"yes"},{"kind":"mall","osm_id":1004292095,"osm_type":"way","lat":25.206304,"lon":55.425742,"name":"Al Warqa City Mall","building":"yes"},{"kind":"mall","osm_id":1024855546,"osm_type":"way","lat":25.391192,"lon":55.479711,"name":"Al Wahah shopping centre","name_ar":"مركز الواحه للتسوق عجمان"},{"kind":"mall","osm_id":1058562040,"osm_type":"way","lat":25.025167,"lon":55.152494,"name":"Pavilion Al Furjan","opening_hours":"Mo-Th,Su 07:00-23:00; Fr-Sa 07:00-24:00","website":"https://dubairetail.ae/en/pavilions-al-furjan","building":"yes","wheelchair":"yes"},{"kind":"mall","osm_id":1075567780,"osm_type":"way","lat":25.159675,"lon":55.369903,"name":"Nad Al Sheba Mall","building":"yes","building_levels":"3","wheelchair":"limited"},{"kind":"mall","osm_id":1095613362,"osm_type":"way","lat":25.389717,"lon":55.463767,"name":"The Mall","name_ar":"ذا مول","building":"yes"},{"kind":"mall","osm_id":1103363545,"osm_type":"way","lat":25.353735,"lon":55.392001,"name":"Matajer Al Musalla","building":"yes"},{"kind":"mall","osm_id":1108448953,"osm_type":"way","lat":25.354417,"lon":55.395083,"name":"Grand Mall Sharjah","opening_hours":"Mo-Su 07:00-24:00","phone":"065288622","addr_street":"Ibrahim Mohammed Al Medfa'a","addr_city":"Sharjah","building":"yes"},{"kind":"mall","osm_id":1109540876,"osm_type":"way","lat":25.348761,"lon":55.409672,"name":"Oasis Mall","name_ar":"الواحة مول","operator":"Landmark Group","website":"https://www.oasisshoppingmalls.com/ae/en/sharjah","phone":"+971 6 516 3666","addr_street":"شارع الوحدة","addr_city":"Sharjah","building":"yes","building_levels":"3","wheelchair":"yes"},{"kind":"mall","osm_id":1113562478,"osm_type":"way","lat":25.189191,"lon":55.382321,"name":"One Square Mall","building":"yes"},{"kind":"mall","osm_id":1113625959,"osm_type":"way","lat":25.299214,"lon":55.368166,"name":"Nesto Mia Mall","name_ar":"نستو ميا مول","operator":"Nesto Group","opening_hours":"Mo-Su 08:00-00:00","building":"yes","building_levels":"4","internet_access":"no"},{"kind":"mall","osm_id":1115898819,"osm_type":"way","lat":25.124508,"lon":55.402383,"name":"Q1 Mall","opening_hours":"24/7","website":"https://q1malls.com","addr_street":"90 Street","addr_city":"Dubai","building":"mall","building_levels":"2","wheelchair":"limited","internet_access":"wlan","description":"Lucknow's Famous Tunday kababi Now in Dubai"},{"kind":"souq","osm_id":1116222213,"osm_type":"way","lat":25.067427,"lon":55.305764,"name":"Korea Pavilion","wheelchair":"yes"},{"kind":"souq","osm_id":1116222214,"osm_type":"way","lat":25.066958,"lon":55.305746,"name":"Thailand Pavilion","wheelchair":"yes"},{"kind":"souq","osm_id":1116226243,"osm_type":"way","lat":25.067598,"lon":55.306687,"name":"American Pavilion","wheelchair":"yes"},{"kind":"souq","osm_id":1116226250,"osm_type":"way","lat":25.067103,"lon":55.306764,"name":"Japan Pavilion","wheelchair":"yes"},{"kind":"souq","osm_id":1116226254,"osm_type":"way","lat":25.067184,"lon":55.30702,"name":"Afghanistan Pavilion","wheelchair":"yes"},{"kind":"souq","osm_id":1116226255,"osm_type":"way","lat":25.067297,"lon":55.307257,"name":"Oman Pavilion","wheelchair":"yes"},{"kind":"souq","osm_id":1116231039,"osm_type":"way","lat":25.067668,"lon":55.307674,"name":"China Pavilion","wheelchair":"yes"},{"kind":"souq","osm_id":1116231061,"osm_type":"way","lat":25.069293,"lon":55.308131,"name":"Iraq Pavilion","wheelchair":"yes"},{"kind":"souq","osm_id":1116244488,"osm_type":"way","lat":25.070964,"lon":55.307238,"name":"Turkiye Pavilion","wheelchair":"yes"},{"kind":"souq","osm_id":1116248269,"osm_type":"way","lat":25.070581,"lon":55.306732,"name":"Pakistan Pavilion","wheelchair":"yes"},{"kind":"souq","osm_id":1116248271,"osm_type":"way","lat":25.070316,"lon":55.306368,"name":"Q71 From The Community","wheelchair":"yes"},{"kind":"souq","osm_id":1116248272,"osm_type":"way","lat":25.070181,"lon":55.305954,"name":"UAE Pavilion","wheelchair":"yes"},{"kind":"souq","osm_id":1116251361,"osm_type":"way","lat":25.070025,"lon":55.305514,"name":"Khalifa Foundation Pavilion","wheelchair":"yes"},{"kind":"souq","osm_id":1116253447,"osm_type":"way","lat":25.067755,"lon":55.306978,"name":"Europe Pavilion","wheelchair":"yes"},{"kind":"souq","osm_id":1116253448,"osm_type":"way","lat":25.067948,"lon":55.307193,"name":"Russia Pavilion","wheelchair":"yes"},{"kind":"souq","osm_id":1116290526,"osm_type":"way","lat":25.06932,"lon":55.309282,"name":"Kingdom of Saudi Arabia Pavilion","wheelchair":"yes"},{"kind":"souq","osm_id":1116290527,"osm_type":"way","lat":25.069676,"lon":55.309203,"name":"Morocco Pavilion","wheelchair":"yes"},{"kind":"souq","osm_id":1116290540,"osm_type":"way","lat":25.070035,"lon":55.309026,"name":"Egypt Pavilion","wheelchair":"yes"},{"kind":"souq","osm_id":1116290541,"osm_type":"way","lat":25.070319,"lon":55.308858,"name":"Bahrain Pavilion","wheelchair":"yes"},{"kind":"souq","osm_id":1116290542,"osm_type":"way","lat":25.070525,"lon":55.308696,"name":"Yemen Pavilion","wheelchair":"yes"},{"kind":"souq","osm_id":1116290543,"osm_type":"way","lat":25.070741,"lon":55.308463,"name":"Kuwait Pavilion","wheelchair":"yes"},{"kind":"souq","osm_id":1116313628,"osm_type":"way","lat":25.068705,"lon":55.305002,"name":"Syria Pavilion","wheelchair":"yes"},{"kind":"souq","osm_id":1116319120,"osm_type":"way","lat":25.068238,"lon":55.309388,"name":"India Pavilion","wheelchair":"yes"},{"kind":"souq","osm_id":1116501665,"osm_type":"way","lat":25.068216,"lon":55.307369,"name":"African Pavilion","wheelchair":"yes"},{"kind":"souq","osm_id":1116501668,"osm_type":"way","lat":25.068493,"lon":55.308076,"name":"Qatar Pavilion","wheelchair":"yes"},{"kind":"souq","osm_id":1116501670,"osm_type":"way","lat":25.068273,"lon":55.308025,"name":"Lebanon Pavilion","wheelchair":"yes"},{"kind":"souq","osm_id":1116501671,"osm_type":"way","lat":25.068105,"lon":55.307978,"name":"Palestine Pavilion","wheelchair":"yes"},{"kind":"mall","osm_id":1119376831,"osm_type":"way","lat":25.296679,"lon":55.48982,"name":"Matajer Al Juraina","name_ar":"متاجر - الجرينة","operator":"Majid Al Futtaim","opening_hours":"10:00-22:00","addr_street":"S120 - University City Rd","addr_city":"Juraina, Sharjah","building":"yes"},{"kind":"mall","osm_id":1124067759,"osm_type":"way","lat":25.243311,"lon":55.277056,"name":"Al Hudaiba Mall","building":"yes","building_levels":"11"},{"kind":"mall","osm_id":1131702804,"osm_type":"way","lat":25.233385,"lon":55.473662,"name":"Khawaneej Walk","building":"yes"},{"kind":"souq","osm_id":1266798646,"osm_type":"way","lat":25.304989,"lon":55.602484,"name":"Sharjah Livestock Market","opening_hours":"Sa-Th,PH 07:00-22:00; Fr 07:00-23:00","wheelchair":"limited"},{"kind":"souq","osm_id":1324495186,"osm_type":"way","lat":25.067415,"lon":55.309029,"name":"Iran Pavilion"},{"kind":"mall","osm_id":1327438678,"osm_type":"way","lat":24.982528,"lon":55.137147,"building":"retail"},{"kind":"mall","osm_id":1327439417,"osm_type":"way","lat":24.995328,"lon":55.141433,"building":"yes"},{"kind":"mall","osm_id":1327441807,"osm_type":"way","lat":25.007124,"lon":55.110548,"building":"yes"},{"kind":"mall","osm_id":1327442560,"osm_type":"way","lat":25.004554,"lon":55.108354,"building":"yes"},{"kind":"mall","osm_id":1327444272,"osm_type":"way","lat":25.047186,"lon":55.24199,"building":"yes"},{"kind":"mall","osm_id":1327444397,"osm_type":"way","lat":25.01744,"lon":55.247052,"building":"yes"},{"kind":"mall","osm_id":1327448537,"osm_type":"way","lat":25.239475,"lon":55.533433,"building":"yes"},{"kind":"mall","osm_id":1327455279,"osm_type":"way","lat":25.244331,"lon":55.452561,"building":"yes"},{"kind":"mall","osm_id":1329019329,"osm_type":"way","lat":25.190671,"lon":55.265401,"name":"Bay Avenue ​Mall","building":"yes","building_levels":"2"},{"kind":"souq","osm_id":1332073271,"osm_type":"way","lat":25.06991,"lon":55.305221,"name":"Sri Lanka & Bangladesh Pavilion"},{"kind":"souq","osm_id":1355296128,"osm_type":"way","lat":25.068935,"lon":55.308137,"name":"Jordan Pavilion","wheelchair":"yes"},{"kind":"mall","osm_id":1473538973,"osm_type":"way","lat":25.042638,"lon":55.230672,"name":"Joud Boulevard East","building":"commercial"},{"kind":"mall","osm_id":1475566414,"osm_type":"way","lat":25.043865,"lon":55.229845,"name":"Joud Boulevard West","building":"yes"},{"kind":"souq","osm_id":1480026313,"osm_type":"way","lat":25.320195,"lon":55.467744,"name":"North Hub","operator":"Zahia"},{"kind":"mall","osm_id":1715611,"osm_type":"relation","lat":25.194774,"lon":55.276587,"name":"Souk Al Bahar","name_ar":"سوق البحار","website":"https://www.soukalbahar.ae/","wikidata":"Q94532013","building":"yes","building_levels":"5"},{"kind":"mall","osm_id":5749027,"osm_type":"relation","lat":25.228754,"lon":55.319391,"name":"Wafi Mall","name_ar":"وافي مول","wikidata":"Q2659361","building":"yes","building_levels":"4"},{"kind":"mall","osm_id":7377107,"osm_type":"relation","lat":25.281183,"lon":55.38788,"name":"Al Qusais Plaza","addr_street":"Damascus Street","building":"yes","building_levels":"1"},{"kind":"mall","osm_id":11808103,"osm_type":"relation","lat":25.066511,"lon":55.303196,"name":"Cityland Mall","name_ar":"سيتي لاند مول","opening_hours":"Mo-Su 09:00-22:00","website":"https://citylandmall.com","phone":"+971 800 2489 5263;+971 4 341 8583","building":"yes","building_levels":"3"},{"kind":"souq","osm_id":16842105,"osm_type":"relation","lat":25.270048,"lon":55.29808,"name":"Deira Gold Souk","wikidata":"Q5310547","wikipedia":"en:Dubai Gold Souk","wheelchair":"yes"},{"kind":"mall","osm_id":18195959,"osm_type":"relation","lat":25.197007,"lon":55.278574,"name":"The Dubai Mall","name_ar":"دبي مول","operator":"Emaar Malls","opening_hours":"Mo-Su 10:00-2:00","website":"https://www.thedubaimall.com/","phone":"800 38224 6255","wikidata":"Q1133309","wikipedia":"en:The Dubai Mall","addr_street":"شارع الدوحة","addr_city":"دبي","building":"retail","building_levels":"3","wheelchair":"yes","internet_access":"wlan"},{"kind":"souq","osm_id":19527090,"osm_type":"relation","lat":25.359596,"lon":55.384196,"name":"Souq Al Shanasiyah","name_ar":"سوق الشناصية","building":"retail"},{"kind":"mall","osm_id":19534408,"osm_type":"relation","lat":25.347092,"lon":55.384184,"name":"Central Souq","name_ar":"السوق المركزي","addr_street":"Corniche Road","building":"yes","building_levels":"2"}]